{"type": "FeatureCollection", "features": [{"type": "Feature", "properties": {"title": "Tor\u00e0", "entries": [{"place": "Tor\u00e0", "user": "Destinodtpviaje", "text": "Im\u00e1genes borrasca Gloria en Catalu\u00f1a. Fen\u00f3menos de la naturaleza ...sin palabras \ud83d\ude32\ud83d\udca8\ud83d\udca6\ud83c\udf0a\ud83c\udf2a\ufe0f\u26c8\ufe0f\u2614\ud83c\udf21\ufe0f\u26a1\ud83c\udf08\u2744\ufe0f.\n\ud83d\udcf8@Destinodtpviaje\u2026 https://t.co/P7sarVyCrN"}], "cluster_counter": 1, "marker_counter": 0}, "geometry": {"type": "Point", "coordinates": [1.4369905, 41.840835999999996]}}, {"type": "Feature", "properties": {"title": "Calella", "entries": [{"place": "Calella", "user": "BCNinfosite", "text": "Storm Gloria, strong winds and high waves battering Calella this Tuesday. @ Calella Beach, Barcelona https://t.co/dMau0844Vi"}], "cluster_counter": 1, "marker_counter": 0}, "geometry": {"type": "Point", "coordinates": [2.6497539999999997, 41.622937500000006]}}, {"type": "Feature", "properties": {"title": "Igualada", "entries": [{"place": "Igualada", "user": "galaxiamanager", "text": "Roger Margarit ha estrenat el seu single #elteudibuix.\nI tamb\u00e9 anoteu:\n31 gener es publica el disc \"Blau\".\n7 febrer\u2026 https://t.co/fyecBy2uil"}], "cluster_counter": 1, "marker_counter": 0}, "geometry": {"type": "Point", "coordinates": [1.6085764999999999, 41.58643]}}, {"type": "Feature", "properties": {"title": "Les Borges Blanques", "entries": [{"place": "Les Borges Blanques", "user": "rumoursfm", "text": "bona tarda Barcelona .. estem en cam\u00ed cap a tu!  ens veiem tots aquesta nit a la sala d'espectacles.. \u2763\ufe0f\u2026 https://t.co/RrbHk5DsfG"}], "cluster_counter": 1, "marker_counter": 0}, "geometry": {"type": "Point", "coordinates": [0.8507115000000001, 41.493933]}}, {"type": "Feature", "properties": {"title": "Palafrugell", "entries": [{"place": "Palafrugell", "user": "IvanMoranNogue", "text": "@Marga23031970 @queteden155 @emergenciescat @AjPalamos Jo dic que els 200 ja van caure la nit passada i ara en pode\u2026 https://t.co/1ukqJzfvVG"}], "cluster_counter": 1, "marker_counter": 0}, "geometry": {"type": "Point", "coordinates": [3.1687955, 41.909493]}}, {"type": "Feature", "properties": {"title": "Ma\u00e7anet de la Selva", "entries": [{"place": "Ma\u00e7anet de la Selva", "user": "ajMassanet", "text": "Estan al cas. I hi hem parlat recentment. Estem pendent de rebre informaci\u00f3. No ens han pogut dir quan es pot resta\u2026 https://t.co/G2hYnWHnIW"}], "cluster_counter": 1, "marker_counter": 0}, "geometry": {"type": "Point", "coordinates": [2.730047, 41.765578000000005]}}, {"type": "Feature", "properties": {"title": "Girona", "entries": [{"place": "Girona", "user": "GallivantingLoz", "text": "Girona is the perfect day trip from Barcelona if you're looking for some history and culture \ud83d\ude0d Anyone recognise thi\u2026 https://t.co/HGgWTQcDWq"}], "cluster_counter": 1, "marker_counter": 0}, "geometry": {"type": "Point", "coordinates": [2.8404005000000003, 41.9844735]}}, {"type": "Feature", "properties": {"title": "Vinaixa", "entries": [{"place": "Vinaixa", "user": "rumoursfm", "text": "Rumours Of Fleetwood Mac on route Madrid to Barcelona! Snow!! \ud83d\ude0e #fleetwoodmac #classicrock #snow #barcelona @ Vi\u00f1ai\u2026 https://t.co/w9qce5jdOa"}], "cluster_counter": 1, "marker_counter": 0}, "geometry": {"type": "Point", "coordinates": [0.972037, 41.434751500000004]}}, {"type": "Feature", "properties": {"title": "Vilob\u00ed d'Onyar", "entries": [{"place": "Vilob\u00ed d'Onyar", "user": "Fabsavethequeen", "text": "@napolista Prima il Barcelona che \"abbandona\" l'uso del catalano, adesso i mille passaggi inutili ( ma identitari).\u2026 https://t.co/yiTwe27SpD"}], "cluster_counter": 1, "marker_counter": 0}, "geometry": {"type": "Point", "coordinates": [2.7344395, 41.892194]}}, {"type": "Feature", "properties": {"title": "Tortosa", "entries": [{"place": "Tortosa", "user": "pemesap", "text": "Trobo que ara podrien aprofitar per arreglar la carretera del Poblenou #carreteradelavergonya @adamtomas i el nostr\u2026 https://t.co/rvtLhnjhKU"}], "cluster_counter": 1, "marker_counter": 0}, "geometry": {"type": "Point", "coordinates": [0.448846, 40.8155345]}}, {"type": "Feature", "properties": {"title": "Cardona", "entries": [{"place": "Cardona", "user": "marc_raluy", "text": "Quiz\u00e1s no pueda sentirte, pero con so\u00f1arte ya est\u00e1 bien...\n\u262f\ufe0f\n.\u00b7.\n#cardona #castell #castle\n#barcelona #act\u2026 https://t.co/MDKwZqiKsv"}], "cluster_counter": 1, "marker_counter": 0}, "geometry": {"type": "Point", "coordinates": [1.6463014999999999, 41.914903]}}, {"type": "Feature", "properties": {"title": "Reus", "entries": [{"place": "Reus", "user": "jmagell", "text": "Estos d\u00edas est\u00e1 haciendo mucho fr\u00edo en Barcelona. Si veis/conoc\u00e9is a alguien durmiendo en la calle pod\u00e9is llamar al\u2026 https://t.co/ugqPqajC1J"}], "cluster_counter": 1, "marker_counter": 0}, "geometry": {"type": "Point", "coordinates": [1.1243690000000002, 41.146019]}}, {"type": "Feature", "properties": {"title": "T\u00e0rrega", "entries": [{"place": "T\u00e0rrega", "user": "ajaxanna", "text": "@aster2013 @AMassisimo @AmatTobia @mbrugues @boye_g @elnacionalcat_e Aixo es un galimaties,diu la wikipedia\"mare,Do\u2026 https://t.co/SlRivV1u9j"}], "cluster_counter": 1, "marker_counter": 0}, "geometry": {"type": "Point", "coordinates": [1.132757, 41.6757415]}}, {"type": "Feature", "properties": {"title": "Peralada", "entries": [{"place": "Peralada", "user": "ajperalada", "text": "\u26d4 Passos Llobregat i Muga\n\u26d4 Pas Entrepat, Pas Morassac i Pas Orlina."}], "cluster_counter": 1, "marker_counter": 0}, "geometry": {"type": "Point", "coordinates": [3.0367249999999997, 42.307885]}}]}